{
  "type": "FeatureCollection",
  "features": [
    {
      "geometry": {
        "coordinates": [
          24.738333,
          60.159444
        ],
        "type": "Point"
      },
      "properties": {
        "name": "Matinkylä"
      },
      "type": "Feature"
    },
    {
      "geometry": {
        "coordinates": [
          24.763333,
          60.170556
        ],
        "type": "Point"
      },
      "properties": {
        "name": "Niittykumpu"
      },
      "type": "Feature"
    },
    {
      "geometry": {
        "coordinates": [
          24.7803,
          60.1748
        ],
        "type": "Point"
      },
      "properties": {
        "name": "Urheilupuisto"
      },
      "type": "Feature"
    },
    {
      "geometry": {
        "coordinates": [
          24.803333,
          60.175
        ],
        "type": "Point"
      },
      "properties": {
        "name": "Tapiola"
      },
      "type": "Feature"
    },
    {
      "geometry": {
        "coordinates": [
          24.825055,
          60.1847
        ],
        "type": "Point"
      },
      "properties": {
        "name": "Aalto-yliopisto"
      },
      "type": "Feature"
    },
    {
      "geometry": {
        "coordinates": [
          24.8295,
          60.1758
        ],
        "type": "Point"
      },
      "properties": {
        "name": "Keilaniemi"
      },
      "type": "Feature"
    },
    {
      "geometry": {
        "coordinates": [
          24.8542,
          60.1636
        ],
        "type": "Point"
      },
      "properties": {
        "name": "Koivusaari"
      },
      "type": "Feature"
    },
    {
      "geometry": {
        "coordinates": [
          24.878667,
          60.159333
        ],
        "type": "Point"
      },
      "properties": {
        "name": "Lauttasaari"
      },
      "type": "Feature"
    },
    {
      "geometry": {
        "coordinates": [
          24.914444,
          60.163056
        ],
        "type": "Point"
      },
      "properties": {
        "name": "Ruoholahti"
      },
      "type": "Feature"
    },
    {
      "geometry": {
        "coordinates": [
          24.931944,
          60.168889
        ],
        "type": "Point"
      },
      "properties": {
        "name": "Kamppi"
      },
      "type": "Feature"
    },
    {
      "geometry": {
        "coordinates": [
          24.940556,
          60.170556
        ],
        "type": "Point"
      },
      "properties": {
        "name": "Rautatientori"
      },
      "type": "Feature"
    },
    {
      "geometry": {
        "coordinates": [
          24.9475,
          60.172222
        ],
        "type": "Point"
      },
      "properties": {
        "name": "Helsingin yliopisto"
      },
      "type": "Feature"
    },
    {
      "geometry": {
        "coordinates": [
          24.950556,
          60.18
        ],
        "type": "Point"
      },
      "properties": {
        "name": "Hakaniemi"
      },
      "type": "Feature"
    },
    {
      "geometry": {
        "coordinates": [
          24.961111,
          60.1875
        ],
        "type": "Point"
      },
      "properties": {
        "name": "Sörnäinen"
      },
      "type": "Feature"
    },
    {
      "geometry": {
        "coordinates": [
          24.976944,
          60.1875
        ],
        "type": "Point"
      },
      "properties": {
        "name": "Kalasatama"
      },
      "type": "Feature"
    },
    {
      "geometry": {
        "coordinates": [
          25.008056,
          60.188889
        ],
        "type": "Point"
      },
      "properties": {
        "name": "Kulosaari"
      },
      "type": "Feature"
    },
    {
      "geometry": {
        "coordinates": [
          25.030833,
          60.195
        ],
        "type": "Point"
      },
      "properties": {
        "name": "Herttoniemi"
      },
      "type": "Feature"
    },
    {
      "geometry": {
        "coordinates": [
          25.043611,
          60.205278
        ],
        "type": "Point"
      },
      "properties": {
        "name": "Siilitie"
      },
      "type": "Feature"
    },
    {
      "geometry": {
        "coordinates": [
          25.078056,
          60.210278
        ],
        "type": "Point"
      },
      "properties": {
        "name": "Itäkeskus"
      },
      "type": "Feature"
    },
    {
      "geometry": {
        "coordinates": [
          25.075556,
          60.225
        ],
        "type": "Point"
      },
      "properties": {
        "name": "Myllypuro"
      },
      "type": "Feature"
    },
    {
      "geometry": {
        "coordinates": [
          25.093056,
          60.214722
        ],
        "type": "Point"
      },
      "properties": {
        "name": "Puotila"
      },
      "type": "Feature"
    },
    {
      "geometry": {
        "coordinates": [
          25.083611,
          60.236111
        ],
        "type": "Point"
      },
      "properties": {
        "name": "Kontula"
      },
      "type": "Feature"
    },
    {
      "geometry": {
        "coordinates": [
          25.121389,
          60.205278
        ],
        "type": "Point"
      },
      "properties": {
        "name": "Rastila"
      },
      "type": "Feature"
    },
    {
      "geometry": {
        "coordinates": [
          25.110833,
          60.239167
        ],
        "type": "Point"
      },
      "properties": {
        "name": "Mellunmäki"
      },
      "type": "Feature"
    },
    {
      "geometry": {
        "coordinates": [
          25.142222,
          60.207222
        ],
        "type": "Point"
      },
      "properties": {
        "name": "Vuosaari"
      },
      "type": "Feature"
    }
  ]
}
