{"type":"FeatureCollection","features":[{"type":"Feature","geometry":{"type":"Point","coordinates":[0.0037377856069111,51.531951985733]},"properties":{"name":"Abbey Road"}},{"type":"Feature","geometry":{"type":"Point","coordinates":[0.12028637127604,51.49078408041]},"properties":{"name":"Abbey Wood"}},{"type":"Feature","geometry":{"type":"Point","coordinates":[-0.26767554257793,51.516886963398]},"properties":{"name":"Acton"}},{"type":"Feature","geometry":{"type":"Point","coordinates":[-0.26341579231596,51.508757812012]},"properties":{"name":"Acton Central"}},{"type":"Feature","geometry":{"type":"Point","coordinates":[-0.2802882961706,51.503071476856]},"properties":{"name":"Acton Town"}},{"type":"Feature","geometry":{"type":"Point","coordinates":[-0.032650741074384,51.356238593907]},"properties":{"name":"Addington Village"}},{"type":"Feature","geometry":{"type":"Point","coordinates":[-0.07319891614723,51.379808298043]},"properties":{"name":"Addiscombe"}},{"type":"Feature","geometry":{"type":"Point","coordinates":[0.12645902197803,51.435815590189]},"properties":{"name":"Albany Park"}},{"type":"Feature","geometry":{"type":"Point","coordinates":[-0.075612503707184,51.514342387502]},"properties":{"name":"Aldgate"}},{"type":"Feature","geometry":{"type":"Point","coordinates":[-0.072987053548915,51.515081631079]},"properties":{"name":"Aldgate East"}},{"type":"Feature","geometry":{"type":"Point","coordinates":[-0.1201345367387,51.598262836895]},"properties":{"name":"Alexandra Palace"}},{"type":"Feature","geometry":{"type":"Point","coordinates":[-0.012610477634,51.510476925464]},"properties":{"name":"All Saints"}},{"type":"Feature","geometry":{"type":"Point","coordinates":[-0.2995013414547,51.541209310632]},"properties":{"name":"Alperton"}},{"type":"Feature","geometry":{"type":"Point","coordinates":[-0.60649933056891,51.674129392062]},"properties":{"name":"Amersham"}},{"type":"Feature","geometry":{"type":"Point","coordinates":[-0.12362243190632,51.382299434639]},"properties":{"name":"Ampere Way"}},{"type":"Feature","geometry":{"type":"Point","coordinates":[-0.065122723194277,51.412516725364]},"properties":{"name":"Anerley"}},{"type":"Feature","geometry":{"type":"Point","coordinates":[-0.10556703413728,51.532968028132]},"properties":{"name":"Angel"}},{"type":"Feature","geometry":{"type":"Point","coordinates":[-0.048718479404686,51.612420325055]},"properties":{"name":"Angel Road"}},{"type":"Feature","geometry":{"type":"Point","coordinates":[-0.13510715160572,51.565490550156]},"properties":{"name":"Archway"}},{"type":"Feature","geometry":{"type":"Point","coordinates":[-0.058304179730024,51.391522758601]},"properties":{"name":"Arena"}},{"type":"Feature","geometry":{"type":"Point","coordinates":[-0.13425577761924,51.616230157665]},"properties":{"name":"Arnos Grove"}},{"type":"Feature","geometry":{"type":"Point","coordinates":[-0.10548551071377,51.558541388156]},"properties":{"name":"Arsenal"}},{"type":"Feature","geometry":{"type":"Point","coordinates":[-0.049432561974321,51.406797988282]},"properties":{"name":"Avenue Road"}},{"type":"Feature","geometry":{"type":"Point","coordinates":[-0.15688978273689,51.523129639184]},"properties":{"name":"Baker Street"}},{"type":"Feature","geometry":{"type":"Point","coordinates":[-0.15267077683302,51.443182580239]},"properties":{"name":"Balham"}},{"type":"Feature","geometry":{"type":"Point","coordinates":[-0.088985715325045,51.513347072699]},"properties":{"name":"Bank"}},{"type":"Feature","geometry":{"type":"Point","coordinates":[-0.21311798536959,51.329293148535]},"properties":{"name":"Banstead"}},{"type":"Feature","geometry":{"type":"Point","coordinates":[-0.097707167852645,51.520215295016]},"properties":{"name":"Barbican"}},{"type":"Feature","geometry":{"type":"Point","coordinates":[0.0808460268962,51.539521102884]},"properties":{"name":"Barking"}},{"type":"Feature","geometry":{"type":"Point","coordinates":[0.088491071171579,51.585850602534]},"properties":{"name":"Barkingside"}},{"type":"Feature","geometry":{"type":"Point","coordinates":[0.16096241569889,51.464780266606]},"properties":{"name":"Barnehurst"}},{"type":"Feature","geometry":{"type":"Point","coordinates":[-0.24201866806989,51.467127801887]},"properties":{"name":"Barnes"}},{"type":"Feature","geometry":{"type":"Point","coordinates":[-0.25234822148068,51.472228083132]},"properties":{"name":"Barnes Bridge"}},{"type":"Feature","geometry":{"type":"Point","coordinates":[-0.21341574380466,51.490228707652]},"properties":{"name":"Barons Court"}},{"type":"Feature","geometry":{"type":"Point","coordinates":[-0.14810936441775,51.477318340776]},"properties":{"name":"Battersea Park"}},{"type":"Feature","geometry":{"type":"Point","coordinates":[-0.18788716574986,51.512111310915]},"properties":{"name":"Bayswater"}},{"type":"Feature","geometry":{"type":"Point","coordinates":[-0.016481381251057,51.424626059454]},"properties":{"name":"Beckenham Hill"}},{"type":"Feature","geometry":{"type":"Point","coordinates":[-0.025687362710869,51.410941644002]},"properties":{"name":"Beckenham Junction"}},{"type":"Feature","geometry":{"type":"Point","coordinates":[-0.043377546079955,51.409529753155]},"properties":{"name":"Beckenham Road"}},{"type":"Feature","geometry":{"type":"Point","coordinates":[0.061539705886513,51.514376621471]},"properties":{"name":"Beckton"}},{"type":"Feature","geometry":{"type":"Point","coordinates":[0.054836346093653,51.508900786453]},"properties":{"name":"Beckton Park"}},{"type":"Feature","geometry":{"type":"Point","coordinates":[0.12689470862039,51.539585393148]},"properties":{"name":"Becontree"}},{"type":"Feature","geometry":{"type":"Point","coordinates":[-0.1421240647587,51.389239898821]},"properties":{"name":"Beddington Lane"}},{"type":"Feature","geometry":{"type":"Point","coordinates":[-0.17848210080545,51.400961667752]},"properties":{"name":"Belgrave Walk"}},{"type":"Feature","geometry":{"type":"Point","coordinates":[-0.020397386684838,51.433864895434]},"properties":{"name":"Bellingham"}},{"type":"Feature","geometry":{"type":"Point","coordinates":[-0.19947489773285,51.344119948481]},"properties":{"name":"Belmont"}},{"type":"Feature","geometry":{"type":"Point","coordinates":[-0.1639600723677,51.550190897304]},"properties":{"name":"Belsize Park"}},{"type":"Feature","geometry":{"type":"Point","coordinates":[0.15204819376851,51.491958983909]},"properties":{"name":"Belvedere"}},{"type":"Feature","geometry":{"type":"Point","coordinates":[-0.064315686265478,51.497960787629]},"properties":{"name":"Bermondsey"}},{"type":"Feature","geometry":{"type":"Point","coordinates":[-0.28030710499701,51.398768439892]},"properties":{"name":"Berrylands"}},{"type":"Feature","geometry":{"type":"Point","coordinates":[-0.055377698622437,51.527191747482]},"properties":{"name":"Bethnal Green"}},{"type":"Feature","geometry":{"type":"Point","coordinates":[-0.059999330521283,51.524282746211]},"properties":{"name":"Bethnal Green Rail"}},{"type":"Feature","geometry":{"type":"Point","coordinates":[0.14821829873454,51.440814511828]},"properties":{"name":"Bexley"}},{"type":"Feature","geometry":{"type":"Point","coordinates":[0.13337735793409,51.463549940694]},"properties":{"name":"Bexleyheath"}},{"type":"Feature","geometry":{"type":"Point","coordinates":[0.044318404705676,51.400379563229]},"properties":{"name":"Bickley"}},{"type":"Feature","geometry":{"type":"Point","coordinates":[-0.0562718615037,51.403863100681]},"properties":{"name":"Birkbeck"}},{"type":"Feature","geometry":{"type":"Point","coordinates":[-0.10298097717171,51.511586939902]},"properties":{"name":"Blackfriars"}},{"type":"Feature","geometry":{"type":"Point","coordinates":[0.0083509882498168,51.465408009363]},"properties":{"name":"Blackheath"}},{"type":"Feature","geometry":{"type":"Point","coordinates":[-0.070519579673311,51.384746191516]},"properties":{"name":"Blackhorse Lane"}},{"type":"Feature","geometry":{"type":"Point","coordinates":[-0.039611280026926,51.585776631411]},"properties":{"name":"Blackhorse Road"}},{"type":"Feature","geometry":{"type":"Point","coordinates":[-0.0072207589795153,51.507831540895]},"properties":{"name":"Blackwall"}},{"type":"Feature","geometry":{"type":"Point","coordinates":[-0.14959920109132,51.513797542631]},"properties":{"name":"Bond Street"}},{"type":"Feature","geometry":{"type":"Point","coordinates":[-0.094182918403389,51.501048880447]},"properties":{"name":"Borough"}},{"type":"Feature","geometry":{"type":"Point","coordinates":[-0.32473278589022,51.495765574642]},"properties":{"name":"Boston Manor"}},{"type":"Feature","geometry":{"type":"Point","coordinates":[-0.12416262739225,51.607031935983]},"properties":{"name":"Bounds Green"}},{"type":"Feature","geometry":{"type":"Point","coordinates":[-0.020485486059214,51.527615205643]},"properties":{"name":"Bow Church"}},{"type":"Feature","geometry":{"type":"Point","coordinates":[-0.024345177705763,51.527041809222]},"properties":{"name":"Bow Road"}},{"type":"Feature","geometry":{"type":"Point","coordinates":[-0.11977778086817,51.607249528898]},"properties":{"name":"Bowes Park"}},{"type":"Feature","geometry":{"type":"Point","coordinates":[-0.21332141198154,51.576599240756]},"properties":{"name":"Brent Cross"}},{"type":"Feature","geometry":{"type":"Point","coordinates":[-0.30960813639036,51.487536344613]},"properties":{"name":"Brentford"}},{"type":"Feature","geometry":{"type":"Point","coordinates":[0.29968725631633,51.613610299318]},"properties":{"name":"Brentwood"}},{"type":"Feature","geometry":{"type":"Point","coordinates":[-0.03107782337368,51.655244617739]},"properties":{"name":"Brimsdown"}},{"type":"Feature","geometry":{"type":"Point","coordinates":[-0.11453770490964,51.462736815606]},"properties":{"name":"Brixton"}},{"type":"Feature","geometry":{"type":"Point","coordinates":[-0.03773385721419,51.464749666688]},"properties":{"name":"Brockley"}},{"type":"Feature","geometry":{"type":"Point","coordinates":[0.017249827752461,51.408942308516]},"properties":{"name":"Bromley North"}},{"type":"Feature","geometry":{"type":"Point","coordinates":[0.017373953488859,51.400001286054]},"properties":{"name":"Bromley South"}},{"type":"Feature","geometry":{"type":"Point","coordinates":[-0.01166796209473,51.52484020109]},"properties":{"name":"Bromley-by-Bow"}},{"type":"Feature","geometry":{"type":"Point","coordinates":[-0.20282406710345,51.545262386773]},"properties":{"name":"Brondesbury"}},{"type":"Feature","geometry":{"type":"Point","coordinates":[-0.21045952961905,51.540325391085]},"properties":{"name":"Brondesbury Park"}},{"type":"Feature","geometry":{"type":"Point","coordinates":[-0.011009600958786,51.747015568918]},"properties":{"name":"Broxbourne"}},{"type":"Feature","geometry":{"type":"Point","coordinates":[-0.070384555517657,51.594011254361]},"properties":{"name":"Bruce Grove"}},{"type":"Feature","geometry":{"type":"Point","coordinates":[0.046726985755,51.626576654655]},"properties":{"name":"Buckhurst Hill"}},{"type":"Feature","geometry":{"type":"Point","coordinates":[-0.26431627556888,51.602551943784]},"properties":{"name":"Burnt Oak"}},{"type":"Feature","geometry":{"type":"Point","coordinates":[-0.069265963311165,51.641481967261]},"properties":{"name":"Bush Hill Park"}},{"type":"Feature","geometry":{"type":"Point","coordinates":[-0.38470709118099,51.645544206307]},"properties":{"name":"Bushey"}},{"type":"Feature","geometry":{"type":"Point","coordinates":[-0.11834644235876,51.547885455043]},"properties":{"name":"Caledonian Road"}},{"type":"Feature","geometry":{"type":"Point","coordinates":[-0.11519043865212,51.543284589046]},"properties":{"name":"Caledonian Road and Barnsbury"}},{"type":"Feature","geometry":{"type":"Point","coordinates":[-0.05718878628523,51.532059770708]},"properties":{"name":"Cambridge Heath"}},{"type":"Feature","geometry":{"type":"Point","coordinates":[-0.13918869492503,51.541851250779]},"properties":{"name":"Camden Road"}},{"type":"Feature","geometry":{"type":"Point","coordinates":[-0.14243796405007,51.539969369251]},"properties":{"name":"Camden Town"}},{"type":"Feature","geometry":{"type":"Point","coordinates":[-0.05079271714472,51.498168417556]},"properties":{"name":"Canada Water"}},{"type":"Feature","geometry":{"type":"Point","coordinates":[-0.019452434600173,51.503578406232]},"properties":{"name":"Canary Wharf"}},{"type":"Feature","geometry":{"type":"Point","coordinates":[0.0083200415480822,51.513870285695]},"properties":{"name":"Canning Town"}},{"type":"Feature","geometry":{"type":"Point","coordinates":[-0.090236118885105,51.511362099463]},"properties":{"name":"Cannon Street"}},{"type":"Feature","geometry":{"type":"Point","coordinates":[-0.092559776199295,51.548188396024]},"properties":{"name":"Canonbury"}},{"type":"Feature","geometry":{"type":"Point","coordinates":[-0.29437715826231,51.607650605221]},"properties":{"name":"Canons Park"}},{"type":"Feature","geometry":{"type":"Point","coordinates":[-0.38581487914664,51.628186764519]},"properties":{"name":"Carpenders Park"}},{"type":"Feature","geometry":{"type":"Point","coordinates":[-0.16638396492825,51.368426385593]},"properties":{"name":"Carshalton"}},{"type":"Feature","geometry":{"type":"Point","coordinates":[-0.16948196651609,51.357386860957]},"properties":{"name":"Carshalton Beeches"}},{"type":"Feature","geometry":{"type":"Point","coordinates":[-0.33148966489625,51.522973705473]},"properties":{"name":"Castle Bar Park"}},{"type":"Feature","geometry":{"type":"Point","coordinates":[-0.078592962360211,51.282162831704]},"properties":{"name":"Caterham"}},{"type":"Feature","geometry":{"type":"Point","coordinates":[-0.026524111698793,51.44426491475]},"properties":{"name":"Catford"}},{"type":"Feature","geometry":{"type":"Point","coordinates":[-0.024807488912048,51.444694627575]},"properties":{"name":"Catford Bridge"}},{"type":"Feature","geometry":{"type":"Point","coordinates":[-0.10387373843954,51.37576747998]},"properties":{"name":"Centrale"}},{"type":"Feature","geometry":{"type":"Point","coordinates":[0.12891553745986,51.568046861857]},"properties":{"name":"Chadwell Heath"}},{"type":"Feature","geometry":{"type":"Point","coordinates":[0.28749010037512,51.4855544601]},"properties":{"name":"Chafford Hundred"}},{"type":"Feature","geometry":{"type":"Point","coordinates":[-0.56105332039672,51.667907547721]},"properties":{"name":"Chalfont and Latimer"}},{"type":"Feature","geometry":{"type":"Point","coordinates":[-0.15371865256093,51.544149104848]},"properties":{"name":"Chalk Farm"}},{"type":"Feature","geometry":{"type":"Point","coordinates":[-0.11194761724718,51.518494029809]},"properties":{"name":"Chancery Lane"}},{"type":"Feature","geometry":{"type":"Point","coordinates":[-0.12478853109718,51.508358644804]},"properties":{"name":"Charing Cross"}},{"type":"Feature","geometry":{"type":"Point","coordinates":[0.030956045084626,51.486834983914]},"properties":{"name":"Charlton"}},{"type":"Feature","geometry":{"type":"Point","coordinates":[-0.21419692461334,51.355460268652]},"properties":{"name":"Cheam"}},{"type":"Feature","geometry":{"type":"Point","coordinates":[0.10899847900884,51.35626456871]},"properties":{"name":"Chelsfield"}},{"type":"Feature","geometry":{"type":"Point","coordinates":[-0.61141518839627,51.705380095434]},"properties":{"name":"Chesham"}},{"type":"Feature","geometry":{"type":"Point","coordinates":[-0.023872946724225,51.702873317164]},"properties":{"name":"Cheshunt"}},{"type":"Feature","geometry":{"type":"Point","coordinates":[-0.30046176722378,51.364243478778]},"properties":{"name":"Chessington North"}},{"type":"Feature","geometry":{"type":"Point","coordinates":[-0.30707466141954,51.356704567744]},"properties":{"name":"Chessington South"}},{"type":"Feature","geometry":{"type":"Point","coordinates":[0.076193656688014,51.617857862487]},"properties":{"name":"Chigwell"}},{"type":"Feature","geometry":{"type":"Point","coordinates":[0.0095287721085566,51.63325337195]},"properties":{"name":"Chingford"}},{"type":"Feature","geometry":{"type":"Point","coordinates":[-0.16943152489582,51.309275002404]},"properties":{"name":"Chipstead"}},{"type":"Feature","geometry":{"type":"Point","coordinates":[0.057506196205783,51.40559840083]},"properties":{"name":"Chislehurst"}},{"type":"Feature","geometry":{"type":"Point","coordinates":[-0.2669989236265,51.480781526773]},"properties":{"name":"Chiswick"}},{"type":"Feature","geometry":{"type":"Point","coordinates":[-0.26772251965492,51.494370746332]},"properties":{"name":"Chiswick Park"}},{"type":"Feature","geometry":{"type":"Point","coordinates":[-0.51831947385278,51.654265989674]},"properties":{"name":"Chorleywood"}},{"type":"Feature","geometry":{"type":"Point","coordinates":[-0.10433246413651,51.373706574157]},"properties":{"name":"Church Street"}},{"type":"Feature","geometry":{"type":"Point","coordinates":[-0.10360404036727,51.513935079961]},"properties":{"name":"City Thameslink"}},{"type":"Feature","geometry":{"type":"Point","coordinates":[-0.13830051012379,51.4618036863]},"properties":{"name":"Clapham Common"}},{"type":"Feature","geometry":{"type":"Point","coordinates":[-0.13245010905033,51.465469529402]},"properties":{"name":"Clapham High Street"}},{"type":"Feature","geometry":{"type":"Point","coordinates":[-0.17030060907001,51.464366804651]},"properties":{"name":"Clapham Junction"}},{"type":"Feature","geometry":{"type":"Point","coordinates":[-0.12989566953588,51.464916230409]},"properties":{"name":"Clapham North"}},{"type":"Feature","geometry":{"type":"Point","coordinates":[-0.1479696801021,51.452676506748]},"properties":{"name":"Clapham South"}},{"type":"Feature","geometry":{"type":"Point","coordinates":[-0.057475034590784,51.561569094453]},"properties":{"name":"Clapton"}},{"type":"Feature","geometry":{"type":"Point","coordinates":[-0.040687716905021,51.408540565451]},"properties":{"name":"Clock House"}},{"type":"Feature","geometry":{"type":"Point","coordinates":[-0.38902199845314,51.31834723919]},"properties":{"name":"Cobham and Stoke D'Abernon"}},{"type":"Feature","geometry":{"type":"Point","coordinates":[-0.14990225857042,51.652024496788]},"properties":{"name":"Cockfosters"}},{"type":"Feature","geometry":{"type":"Point","coordinates":[-0.25027310932225,51.595230546294]},"properties":{"name":"Colindale"}},{"type":"Feature","geometry":{"type":"Point","coordinates":[-0.17740072104762,51.418759208995]},"properties":{"name":"Colliers Wood"}},{"type":"Feature","geometry":{"type":"Point","coordinates":[-0.059517210901534,51.35978931626]},"properties":{"name":"Coombe Lane"}},{"type":"Feature","geometry":{"type":"Point","coordinates":[-0.1378887436247,51.315800960535]},"properties":{"name":"Coulsdon South"}},{"type":"Feature","geometry":{"type":"Point","coordinates":[-0.1244924862088,51.512760249622]},"properties":{"name":"Covent Garden"}},{"type":"Feature","geometry":{"type":"Point","coordinates":[0.17851710444575,51.448546734577]},"properties":{"name":"Crayford"}},{"type":"Feature","geometry":{"type":"Point","coordinates":[-0.10682963790553,51.684474623566]},"properties":{"name":"Crews Hill"}},{"type":"Feature","geometry":{"type":"Point","coordinates":[-0.21253351132178,51.558422694084]},"properties":{"name":"Cricklewood"}},{"type":"Feature","geometry":{"type":"Point","coordinates":[-0.036532191514461,51.455179296249]},"properties":{"name":"Crofton Park"}},{"type":"Feature","geometry":{"type":"Point","coordinates":[-0.014918409980624,51.495839980525]},"properties":{"name":"Crossharbour and London Arena"}},{"type":"Feature","geometry":{"type":"Point","coordinates":[-0.11711885796196,51.571327111387]},"properties":{"name":"Crouch Hill"}},{"type":"Feature","geometry":{"type":"Point","coordinates":[-0.44158934771671,51.647005333911]},"properties":{"name":"Croxley"}},{"type":"Feature","geometry":{"type":"Point","coordinates":[-0.072592854062748,51.418170359941]},"properties":{"name":"Crystal Palace"}},{"type":"Feature","geometry":{"type":"Point","coordinates":[0.025786917726712,51.509622053058]},"properties":{"name":"Custom House"}},{"type":"Feature","geometry":{"type":"Point","coordinates":[-0.01056746798363,51.481944468688]},"properties":{"name":"Cutty Sark for Maritime Greenwich"}},{"type":"Feature","geometry":{"type":"Point","coordinates":[0.063855162939039,51.508526572883]},"properties":{"name":"Cyprus"}},{"type":"Feature","geometry":{"type":"Point","coordinates":[0.14504542671488,51.526287178504]},"properties":{"name":"Dagenham Dock"}},{"type":"Feature","geometry":{"type":"Point","coordinates":[0.16584784999223,51.544187318113]},"properties":{"name":"Dagenham East"}},{"type":"Feature","geometry":{"type":"Point","coordinates":[0.14769413756505,51.541211772284]},"properties":{"name":"Dagenham Heathway"}},{"type":"Feature","geometry":{"type":"Point","coordinates":[-0.07497978585502,51.546093724339]},"properties":{"name":"Dalston Junction"}},{"type":"Feature","geometry":{"type":"Point","coordinates":[-0.076212502172009,51.548667827094]},"properties":{"name":"Dalston Kingsland"}},{"type":"Feature","geometry":{"type":"Point","coordinates":[0.21809793611023,51.447399615703]},"properties":{"name":"Dartford"}},{"type":"Feature","geometry":{"type":"Point","coordinates":[0.083815925291538,51.645491990883]},"properties":{"name":"Debden"}},{"type":"Feature","geometry":{"type":"Point","coordinates":[-0.090973475173744,51.468200650033]},"properties":{"name":"Denmark Hill"}},{"type":"Feature","geometry":{"type":"Point","coordinates":[-0.026181921788286,51.478890086282]},"properties":{"name":"Deptford"}},{"type":"Feature","geometry":{"type":"Point","coordinates":[-0.022038032405853,51.474476774061]},"properties":{"name":"Deptford Bridge"}},{"type":"Feature","geometry":{"type":"Point","coordinates":[-0.017993342742124,51.522258469272]},"properties":{"name":"Devons Road"}},{"type":"Feature","geometry":{"type":"Point","coordinates":[-0.23878334100376,51.551850619529]},"properties":{"name":"Dollis Hill"}},{"type":"Feature","geometry":{"type":"Point","coordinates":[-0.32959685045955,51.516004715297]},"properties":{"name":"Drayton Green"}},{"type":"Feature","geometry":{"type":"Point","coordinates":[-0.10575577858654,51.553078319423]},"properties":{"name":"Drayton Park"}},{"type":"Feature","geometry":{"type":"Point","coordinates":[-0.20751273432597,51.417398171657]},"properties":{"name":"Dundonald Road"}},{"type":"Feature","geometry":{"type":"Point","coordinates":[-0.30199597251937,51.51486201146]},"properties":{"name":"Ealing Broadway"}},{"type":"Feature","geometry":{"type":"Point","coordinates":[-0.28713701041592,51.510248690463]},"properties":{"name":"Ealing Common"}},{"type":"Feature","geometry":{"type":"Point","coordinates":[-0.19429940765557,51.491356695274]},"properties":{"name":"Earls Court"}},{"type":"Feature","geometry":{"type":"Point","coordinates":[-0.18725830238926,51.442238829835]},"properties":{"name":"Earlsfield"}},{"type":"Feature","geometry":{"type":"Point","coordinates":[-0.2480978154307,51.516263444214]},"properties":{"name":"East Acton"}},{"type":"Feature","geometry":{"type":"Point","coordinates":[-0.091849130629116,51.37571611266]},"properties":{"name":"East Croydon"}},{"type":"Feature","geometry":{"type":"Point","coordinates":[-0.080422179162408,51.461625592168]},"properties":{"name":"East Dulwich"}},{"type":"Feature","geometry":{"type":"Point","coordinates":[-0.16472945405368,51.587332564437]},"properties":{"name":"East Finchley"}},{"type":"Feature","geometry":{"type":"Point","coordinates":[0.051530710126145,51.539246158049]},"properties":{"name":"East Ham"}},{"type":"Feature","geometry":{"type":"Point","coordinates":[-0.0023559243798497,51.508684006054]},"properties":{"name":"East India"}},{"type":"Feature","geometry":{"type":"Point","coordinates":[-0.21098384278422,51.458879808899]},"properties":{"name":"East Putney"}},{"type":"Feature","geometry":{"type":"Point","coordinates":[-0.39680887105797,51.576551871493]},"properties":{"name":"Eastcote"}},{"type":"Feature","geometry":{"type":"Point","coordinates":[-0.026655345425249,51.390796105685]},"properties":{"name":"Eden Park"}},{"type":"Feature","geometry":{"type":"Point","coordinates":[-0.27507922607818,51.614229655466]},"properties":{"name":"Edgware"}},{"type":"Feature","geometry":{"type":"Point","coordinates":[-0.17052514070378,51.520645381678]},"properties":{"name":"Edgware Road (Bakerloo)"}},{"type":"Feature","geometry":{"type":"Point","coordinates":[-0.1676538436008,51.51999806318]},"properties":{"name":"Edgware Road (Circle/District/Hammersmith and City)"}},{"type":"Feature","geometry":{"type":"Point","coordinates":[-0.061624575457523,51.625115709648]},"properties":{"name":"Edmonton Green"}},{"type":"Feature","geometry":{"type":"Point","coordinates":[-0.10072431173602,51.495849394281]},"properties":{"name":"Elephant and Castle"}},{"type":"Feature","geometry":{"type":"Point","coordinates":[0.19726710182967,51.549124559422]},"properties":{"name":"Elm Park"}},{"type":"Feature","geometry":{"type":"Point","coordinates":[-0.049449459806297,51.398291114164]},"properties":{"name":"Elmers End"}},{"type":"Feature","geometry":{"type":"Point","coordinates":[0.044243721084371,51.417080625514]},"properties":{"name":"Elmstead Woods"}},{"type":"Feature","geometry":{"type":"Point","coordinates":[-0.27981416681958,51.652875609998]},"properties":{"name":"Elstree and Borehamwood"}},{"type":"Feature","geometry":{"type":"Point","coordinates":[0.052343698204214,51.455662213853]},"properties":{"name":"Eltham"}},{"type":"Feature","geometry":{"type":"Point","coordinates":[-0.016801981736488,51.468372191483]},"properties":{"name":"Elverson Road"}},{"type":"Feature","geometry":{"type":"Point","coordinates":[-0.12235292981979,51.507312509276]},"properties":{"name":"Embankment"}},{"type":"Feature","geometry":{"type":"Point","coordinates":[0.22023736048149,51.569114881318]},"properties":{"name":"Emerson Park"}},{"type":"Feature","geometry":{"type":"Point","coordinates":[-0.090689752730328,51.652722121848]},"properties":{"name":"Enfield Chase"}},{"type":"Feature","geometry":{"type":"Point","coordinates":[-0.02837661157186,51.670846125012]},"properties":{"name":"Enfield Lock"}},{"type":"Feature","geometry":{"type":"Point","coordinates":[-0.079315469569566,51.651970081543]},"properties":{"name":"Enfield Town"}},{"type":"Feature","geometry":{"type":"Point","coordinates":[0.11384001852178,51.69368615157]},"properties":{"name":"Epping"}},{"type":"Feature","geometry":{"type":"Point","coordinates":[-0.23895587775184,51.323659467583]},"properties":{"name":"Epsom Downs"}},{"type":"Feature","geometry":{"type":"Point","coordinates":[0.17427568781302,51.481647653094]},"properties":{"name":"Erith"}},{"type":"Feature","geometry":{"type":"Point","coordinates":[-0.096351108662094,51.540633322162]},"properties":{"name":"Essex Road"}},{"type":"Feature","geometry":{"type":"Point","coordinates":[-0.13328205840994,51.528664346375]},"properties":{"name":"Euston"}},{"type":"Feature","geometry":{"type":"Point","coordinates":[-0.13328205840994,51.528664346375]},"properties":{"name":"Euston Square"}},{"type":"Feature","geometry":{"type":"Point","coordinates":[-0.24148864560939,51.345243905271]},"properties":{"name":"Ewell East"}},{"type":"Feature","geometry":{"type":"Point","coordinates":[-0.25707477581385,51.349991173131]},"properties":{"name":"Ewell West"}},{"type":"Feature","geometry":{"type":"Point","coordinates":[0.090607714208087,51.59610953153]},"properties":{"name":"Fairlop"}},{"type":"Feature","geometry":{"type":"Point","coordinates":[0.078524084551238,51.459085786225]},"properties":{"name":"Falconwood"}},{"type":"Feature","geometry":{"type":"Point","coordinates":[-0.10482865117184,51.520195700647]},"properties":{"name":"Farringdon"}},{"type":"Feature","geometry":{"type":"Point","coordinates":[-0.40981009327567,51.44787922275]},"properties":{"name":"Feltham"}},{"type":"Feature","geometry":{"type":"Point","coordinates":[-0.078539744740966,51.511566715013]},"properties":{"name":"Fenchurch Street"}},{"type":"Feature","geometry":{"type":"Point","coordinates":[-0.024488907586068,51.351317009732]},"properties":{"name":"Fieldway"}},{"type":"Feature","geometry":{"type":"Point","coordinates":[-0.19320620063466,51.600903273752]},"properties":{"name":"Finchley Central"}},{"type":"Feature","geometry":{"type":"Point","coordinates":[-0.18003614128656,51.547096220268]},"properties":{"name":"Finchley Road"}},{"type":"Feature","geometry":{"type":"Point","coordinates":[-0.18363678247277,51.550119520279]},"properties":{"name":"Finchley Road and Frognal"}},{"type":"Feature","geometry":{"type":"Point","coordinates":[-0.10586706135916,51.564635458062]},"properties":{"name":"Finsbury Park"}},{"type":"Feature","geometry":{"type":"Point","coordinates":[0.024203511499168,51.54931611531]},"properties":{"name":"Forest Gate"}},{"type":"Feature","geometry":{"type":"Point","coordinates":[-0.053314119078799,51.439308318386]},"properties":{"name":"Forest Hill"}},{"type":"Feature","geometry":{"type":"Point","coordinates":[-0.19552976561085,51.480260927016]},"properties":{"name":"Fulham Broadway"}},{"type":"Feature","geometry":{"type":"Point","coordinates":[-0.34942414136408,51.433942607741]},"properties":{"name":"Fulwell"}},{"type":"Feature","geometry":{"type":"Point","coordinates":[0.071789801687878,51.509034130657]},"properties":{"name":"Gallions Reach"}},{"type":"Feature","geometry":{"type":"Point","coordinates":[0.066098526398209,51.576552943422]},"properties":{"name":"Gants Hill"}},{"type":"Feature","geometry":{"type":"Point","coordinates":[-0.098703740375968,51.373966068415]},"properties":{"name":"George Street"}},{"type":"Feature","geometry":{"type":"Point","coordinates":[0.20599141081423,51.581865720882]},"properties":{"name":"Gidea Park"}},{"type":"Feature","geometry":{"type":"Point","coordinates":[-0.083820786846549,51.424469532451]},"properties":{"name":"Gipsy Hill"}},{"type":"Feature","geometry":{"type":"Point","coordinates":[-0.18352915689619,51.494499579725]},"properties":{"name":"Gloucester Road"}},{"type":"Feature","geometry":{"type":"Point","coordinates":[-0.19482013198437,51.572215556655]},"properties":{"name":"Golders Green"}},{"type":"Feature","geometry":{"type":"Point","coordinates":[-0.22738960127533,51.502076993967]},"properties":{"name":"Goldhawk Road"}},{"type":"Feature","geometry":{"type":"Point","coordinates":[-0.13479327927061,51.520613125487]},"properties":{"name":"Goodge Street"}},{"type":"Feature","geometry":{"type":"Point","coordinates":[0.11174407958328,51.566180968146]},"properties":{"name":"Goodmayes"}},{"type":"Feature","geometry":{"type":"Point","coordinates":[-0.09445884360504,51.663502248565]},"properties":{"name":"Gordon Hill"}},{"type":"Feature","geometry":{"type":"Point","coordinates":[-0.15128661069808,51.555405311264]},"properties":{"name":"Gospel Oak"}},{"type":"Feature","geometry":{"type":"Point","coordinates":[0.092286969949084,51.613480413753]},"properties":{"name":"Grange Hill"}},{"type":"Feature","geometry":{"type":"Point","coordinates":[-0.09729997426098,51.642623088692]},"properties":{"name":"Grange Park"}},{"type":"Feature","geometry":{"type":"Point","coordinates":[-0.04310733996913,51.354543260144]},"properties":{"name":"Gravel Hill"}},{"type":"Feature","geometry":{"type":"Point","coordinates":[-0.14394701338886,51.52378881305]},"properties":{"name":"Great Portland Street"}},{"type":"Feature","geometry":{"type":"Point","coordinates":[-0.14246316907526,51.506760501463]},"properties":{"name":"Green Park"}},{"type":"Feature","geometry":{"type":"Point","coordinates":[-0.34586432267848,51.541980112836]},"properties":{"name":"Greenford"}},{"type":"Feature","geometry":{"type":"Point","coordinates":[-0.014848686252722,51.477547665535]},"properties":{"name":"Greenwich"}},{"type":"Feature","geometry":{"type":"Point","coordinates":[0.022612884710894,51.430432640396]},"properties":{"name":"Grove Park"}},{"type":"Feature","geometry":{"type":"Point","coordinates":[-0.27514973411264,51.491863444709]},"properties":{"name":"Gunnersbury"}},{"type":"Feature","geometry":{"type":"Point","coordinates":[-0.15386483218978,51.377860917901]},"properties":{"name":"Hackbridge"}},{"type":"Feature","geometry":{"type":"Point","coordinates":[-0.055575092639468,51.547257451286]},"properties":{"name":"Hackney Central"}},{"type":"Feature","geometry":{"type":"Point","coordinates":[-0.060170685150219,51.549078092042]},"properties":{"name":"Hackney Downs"}},{"type":"Feature","geometry":{"type":"Point","coordinates":[-0.025245084630728,51.543558409072]},"properties":{"name":"Hackney Wick"}},{"type":"Feature","geometry":{"type":"Point","coordinates":[-0.17656673195017,51.668402892286]},"properties":{"name":"Hadley Wood"}},{"type":"Feature","geometry":{"type":"Point","coordinates":[-0.075580841462924,51.538684738939]},"properties":{"name":"Haggerston"}},{"type":"Feature","geometry":{"type":"Point","coordinates":[0.094122987217226,51.602845314928]},"properties":{"name":"Hainault"}},{"type":"Feature","geometry":{"type":"Point","coordinates":[-0.22284652701972,51.491819802914]},"properties":{"name":"Hammersmith (District)"}},{"type":"Feature","geometry":{"type":"Point","coordinates":[-0.22462575515926,51.493483379174]},"properties":{"name":"Hammersmith (Met.)"}},{"type":"Feature","geometry":{"type":"Point","coordinates":[-0.17800013773286,51.556542616677]},"properties":{"name":"Hampstead"}},{"type":"Feature","geometry":{"type":"Point","coordinates":[-0.16455176144825,51.555199944256]},"properties":{"name":"Hampstead Heath"}},{"type":"Feature","geometry":{"type":"Point","coordinates":[-0.37212087604547,51.415879597557]},"properties":{"name":"Hampton"}},{"type":"Feature","geometry":{"type":"Point","coordinates":[-0.34274277866957,51.40229391894]},"properties":{"name":"Hampton Court"}},{"type":"Feature","geometry":{"type":"Point","coordinates":[-0.31308923226487,51.414640080192]},"properties":{"name":"Hampton Wick"}},{"type":"Feature","geometry":{"type":"Point","coordinates":[-0.29298173181915,51.530072069094]},"properties":{"name":"Hanger Lane"}},{"type":"Feature","geometry":{"type":"Point","coordinates":[-0.33803747641273,51.512185998837]},"properties":{"name":"Hanwell"}},{"type":"Feature","geometry":{"type":"Point","coordinates":[-0.25748125850322,51.536258358843]},"properties":{"name":"Harlesden"}},{"type":"Feature","geometry":{"type":"Point","coordinates":[0.2342185071783,51.593202188506]},"properties":{"name":"Harold Wood"}},{"type":"Feature","geometry":{"type":"Point","coordinates":[-0.10519382370901,51.577357921799]},"properties":{"name":"Harringay"}},{"type":"Feature","geometry":{"type":"Point","coordinates":[-0.098202962998489,51.57714590447]},"properties":{"name":"Harringay Green Lanes"}},{"type":"Feature","geometry":{"type":"Point","coordinates":[-0.060685581617259,51.399790578718]},"properties":{"name":"Harrington Road"}},{"type":"Feature","geometry":{"type":"Point","coordinates":[-0.33423825163137,51.592594673236]},"properties":{"name":"Harrow and Wealdstone"}},{"type":"Feature","geometry":{"type":"Point","coordinates":[-0.33698708805734,51.579388159582]},"properties":{"name":"Harrow-on-the-Hill"}},{"type":"Feature","geometry":{"type":"Point","coordinates":[-0.36916434211502,51.609828548789]},"properties":{"name":"Hatch End"}},{"type":"Feature","geometry":{"type":"Point","coordinates":[-0.42336616986103,51.466685355642]},"properties":{"name":"Hatton Cross"}},{"type":"Feature","geometry":{"type":"Point","coordinates":[-0.18891497843117,51.425457340854]},"properties":{"name":"Haydons Road"}},{"type":"Feature","geometry":{"type":"Point","coordinates":[0.010157017878448,51.37573670506]},"properties":{"name":"Hayes"}},{"type":"Feature","geometry":{"type":"Point","coordinates":[-0.42062749859031,51.50304912563]},"properties":{"name":"Hayes and Harlington"}},{"type":"Feature","geometry":{"type":"Point","coordinates":[-0.35689307782418,51.602499669538]},"properties":{"name":"Headstone Lane"}},{"type":"Feature","geometry":{"type":"Point","coordinates":[-0.44771519861354,51.45978048411]},"properties":{"name":"Heathrow Terminal 4"}},{"type":"Feature","geometry":{"type":"Point","coordinates":[-0.49063310869077,51.470025485584]},"properties":{"name":"Heathrow Terminal 5"}},{"type":"Feature","geometry":{"type":"Point","coordinates":[-0.45239283063262,51.47128945567]},"properties":{"name":"Heathrow Terminals 1 2 3"}},{"type":"Feature","geometry":{"type":"Point","coordinates":[-0.23861609099829,51.580075012022]},"properties":{"name":"Hendon"}},{"type":"Feature","geometry":{"type":"Point","coordinates":[-0.2267197095034,51.583133074092]},"properties":{"name":"Hendon Central"}},{"type":"Feature","geometry":{"type":"Point","coordinates":[-0.10254851838021,51.453991381788]},"properties":{"name":"Herne Hill"}},{"type":"Feature","geometry":{"type":"Point","coordinates":[-0.021939126563571,51.503386571015]},"properties":{"name":"Heron Quays"}},{"type":"Feature","geometry":{"type":"Point","coordinates":[-0.19415092780429,51.651688276705]},"properties":{"name":"High Barnet"}},{"type":"Feature","geometry":{"type":"Point","coordinates":[-0.19155165303998,51.500729468384]},"properties":{"name":"High Street Kensington"}},{"type":"Feature","geometry":{"type":"Point","coordinates":[-0.00012084723573169,51.608355993014]},"properties":{"name":"Highams Park"}},{"type":"Feature","geometry":{"type":"Point","coordinates":[-0.10406772078143,51.546495518926]},"properties":{"name":"Highbury and Islington"}},{"type":"Feature","geometry":{"type":"Point","coordinates":[-0.14692043327249,51.57764663481]},"properties":{"name":"Highgate"}},{"type":"Feature","geometry":{"type":"Point","coordinates":[-0.44988357245777,51.55377757066]},"properties":{"name":"Hillingdon"}},{"type":"Feature","geometry":{"type":"Point","coordinates":[-0.00095652287067613,51.452401721767]},"properties":{"name":"Hither Green"}},{"type":"Feature","geometry":{"type":"Point","coordinates":[-0.11982609759457,51.517235749261]},"properties":{"name":"Holborn"}},{"type":"Feature","geometry":{"type":"Point","coordinates":[-0.20654337129402,51.507146508744]},"properties":{"name":"Holland Park"}},{"type":"Feature","geometry":{"type":"Point","coordinates":[-0.11292127587712,51.55281611672]},"properties":{"name":"Holloway Road"}},{"type":"Feature","geometry":{"type":"Point","coordinates":[-0.038497927971748,51.546595450822]},"properties":{"name":"Homerton"}},{"type":"Feature","geometry":{"type":"Point","coordinates":[-0.044138732242293,51.450648245652]},"properties":{"name":"Honor Oak Park"}},{"type":"Feature","geometry":{"type":"Point","coordinates":[0.21894141805997,51.554355082156]},"properties":{"name":"Hornchurch"}},{"type":"Feature","geometry":{"type":"Point","coordinates":[-0.11180120639571,51.586474864733]},"properties":{"name":"Hornsey"}},{"type":"Feature","geometry":{"type":"Point","coordinates":[-0.36178186366717,51.46250486146]},"properties":{"name":"Hounslow"}},{"type":"Feature","geometry":{"type":"Point","coordinates":[-0.36594373417825,51.470925810282]},"properties":{"name":"Hounslow Central"}},{"type":"Feature","geometry":{"type":"Point","coordinates":[-0.35526092596841,51.473707937461]},"properties":{"name":"Hounslow East"}},{"type":"Feature","geometry":{"type":"Point","coordinates":[-0.38569323300198,51.473105762632]},"properties":{"name":"Hounslow West"}},{"type":"Feature","geometry":{"type":"Point","coordinates":[-0.075571232880956,51.531391621283]},"properties":{"name":"Hoxton"}},{"type":"Feature","geometry":{"type":"Point","coordinates":[-0.15245970877887,51.502584030904]},"properties":{"name":"Hyde Park Corner"}},{"type":"Feature","geometry":{"type":"Point","coordinates":[-0.44156508942605,51.560825107127]},"properties":{"name":"Ickenham"}},{"type":"Feature","geometry":{"type":"Point","coordinates":[0.06869961398625,51.559142232556]},"properties":{"name":"Ilford"}},{"type":"Feature","geometry":{"type":"Point","coordinates":[-0.18282310826897,51.474938948929]},"properties":{"name":"Imperial Wharf"}},{"type":"Feature","geometry":{"type":"Point","coordinates":[-0.010478902499309,51.487950088882]},"properties":{"name":"Island Gardens"}},{"type":"Feature","geometry":{"type":"Point","coordinates":[-0.33731436875817,51.475037464523]},"properties":{"name":"Isleworth"}},{"type":"Feature","geometry":{"type":"Point","coordinates":[-0.10120536334161,51.324600324285]},"properties":{"name":"Kenley"}},{"type":"Feature","geometry":{"type":"Point","coordinates":[-0.10505621257104,51.488662470707]},"properties":{"name":"Kennington"}},{"type":"Feature","geometry":{"type":"Point","coordinates":[-0.22469897011847,51.530524241234]},"properties":{"name":"Kensal Green"}},{"type":"Feature","geometry":{"type":"Point","coordinates":[-0.22080656353585,51.53421509119]},"properties":{"name":"Kensal Rise"}},{"type":"Feature","geometry":{"type":"Point","coordinates":[-0.21036483866639,51.497879724483]},"properties":{"name":"Kensington (Olympia)"}},{"type":"Feature","geometry":{"type":"Point","coordinates":[-0.045801176185629,51.412717664303]},"properties":{"name":"Kent House"}},{"type":"Feature","geometry":{"type":"Point","coordinates":[-0.14045684366827,51.550009538423]},"properties":{"name":"Kentish Town"}},{"type":"Feature","geometry":{"type":"Point","coordinates":[-0.14674199079293,51.546547987029]},"properties":{"name":"Kentish Town West"}},{"type":"Feature","geometry":{"type":"Point","coordinates":[-0.31520243664979,51.581496322037]},"properties":{"name":"Kenton"}},{"type":"Feature","geometry":{"type":"Point","coordinates":[-0.28883209363752,51.49000465091]},"properties":{"name":"Kew Bridge"}},{"type":"Feature","geometry":{"type":"Point","coordinates":[-0.28536661446493,51.476789170755]},"properties":{"name":"Kew Gardens"}},{"type":"Feature","geometry":{"type":"Point","coordinates":[0.028314631821257,51.462690183933]},"properties":{"name":"Kidbrooke"}},{"type":"Feature","geometry":{"type":"Point","coordinates":[-0.20461829997264,51.546944459981]},"properties":{"name":"Kilburn"}},{"type":"Feature","geometry":{"type":"Point","coordinates":[-0.19109868962017,51.537267764059]},"properties":{"name":"Kilburn High Road"}},{"type":"Feature","geometry":{"type":"Point","coordinates":[-0.19395164168612,51.535135560206]},"properties":{"name":"Kilburn Park"}},{"type":"Feature","geometry":{"type":"Point","coordinates":[0.062220618931645,51.502008599189]},"properties":{"name":"King George V"}},{"type":"Feature","geometry":{"type":"Point","coordinates":[-0.020250401525809,51.345364099545]},"properties":{"name":"King Henry's Drive"}},{"type":"Feature","geometry":{"type":"Point","coordinates":[-0.12274200728123,51.53079820546]},"properties":{"name":"King's Cross"}},{"type":"Feature","geometry":{"type":"Point","coordinates":[-0.12385771561154,51.530312476892]},"properties":{"name":"Kings Cross St. Pancras"}},{"type":"Feature","geometry":{"type":"Point","coordinates":[-0.27858717715014,51.584876550714]},"properties":{"name":"Kingsbury"}},{"type":"Feature","geometry":{"type":"Point","coordinates":[-0.30112666341862,51.412641800653]},"properties":{"name":"Kingston"}},{"type":"Feature","geometry":{"type":"Point","coordinates":[-0.21121888607947,51.29472316433]},"properties":{"name":"Kingswood"}},{"type":"Feature","geometry":{"type":"Point","coordinates":[-0.16065008131194,51.501354916808]},"properties":{"name":"Knightsbridge"}},{"type":"Feature","geometry":{"type":"Point","coordinates":[0.13084539482109,51.345751922698]},"properties":{"name":"Knockholt"}},{"type":"Feature","geometry":{"type":"Point","coordinates":[-0.21018376269161,51.517210698742]},"properties":{"name":"Ladbroke Grove"}},{"type":"Feature","geometry":{"type":"Point","coordinates":[-0.019230010500554,51.45619213691]},"properties":{"name":"Ladywell"}},{"type":"Feature","geometry":{"type":"Point","coordinates":[-0.11175385704735,51.499129959063]},"properties":{"name":"Lambeth North"}},{"type":"Feature","geometry":{"type":"Point","coordinates":[-0.17541552045722,51.511890964101]},"properties":{"name":"Lancaster Gate"}},{"type":"Feature","geometry":{"type":"Point","coordinates":[-0.015199388573999,51.518883939693]},"properties":{"name":"Langdon Park"}},{"type":"Feature","geometry":{"type":"Point","coordinates":[-0.21744525733064,51.513958124663]},"properties":{"name":"Latimer Road"}},{"type":"Feature","geometry":{"type":"Point","coordinates":[-0.084959283940936,51.37519900686]},"properties":{"name":"Lebanon Road"}},{"type":"Feature","geometry":{"type":"Point","coordinates":[0.013379080898623,51.449458517716]},"properties":{"name":"Lee"}},{"type":"Feature","geometry":{"type":"Point","coordinates":[-0.12822773962177,51.511291196842]},"properties":{"name":"Leicester Square"}},{"type":"Feature","geometry":{"type":"Point","coordinates":[-0.012418307529155,51.464880714235]},"properties":{"name":"Lewisham"}},{"type":"Feature","geometry":{"type":"Point","coordinates":[-0.0064509088011814,51.55813227051]},"properties":{"name":"Leyton"}},{"type":"Feature","geometry":{"type":"Point","coordinates":[-0.0080519210997184,51.569364239801]},"properties":{"name":"Leyton Midland Road"}},{"type":"Feature","geometry":{"type":"Point","coordinates":[0.009154878018083,51.568522287449]},"properties":{"name":"Leytonstone"}},{"type":"Feature","geometry":{"type":"Point","coordinates":[0.0082688934065806,51.563807342647]},"properties":{"name":"Leytonstone High Road"}},{"type":"Feature","geometry":{"type":"Point","coordinates":[-0.039365669438682,51.512312167848]},"properties":{"name":"Limehouse"}},{"type":"Feature","geometry":{"type":"Point","coordinates":[-0.082235212309326,51.517598273919]},"properties":{"name":"Liverpool Street"}},{"type":"Feature","geometry":{"type":"Point","coordinates":[-0.080731911253509,51.364275544524]},"properties":{"name":"Lloyd Park"}},{"type":"Feature","geometry":{"type":"Point","coordinates":[-0.085991192281661,51.504674357597]},"properties":{"name":"London Bridge"}},{"type":"Feature","geometry":{"type":"Point","coordinates":[0.047887121033287,51.50368965775]},"properties":{"name":"London City Airport"}},{"type":"Feature","geometry":{"type":"Point","coordinates":[-0.057685269137809,51.540718847663]},"properties":{"name":"London Fields"}},{"type":"Feature","geometry":{"type":"Point","coordinates":[-0.10248294761392,51.46667891193]},"properties":{"name":"Loughborough Junction"}},{"type":"Feature","geometry":{"type":"Point","coordinates":[0.055293528321119,51.641570470369]},"properties":{"name":"Loughton"}},{"type":"Feature","geometry":{"type":"Point","coordinates":[-0.033315960742811,51.424846846074]},"properties":{"name":"Lower Sydenham"}},{"type":"Feature","geometry":{"type":"Point","coordinates":[-0.18541823310956,51.529995078969]},"properties":{"name":"Maida Vale"}},{"type":"Feature","geometry":{"type":"Point","coordinates":[-0.26110604834896,51.384609567544]},"properties":{"name":"Malden Manor"}},{"type":"Feature","geometry":{"type":"Point","coordinates":[-0.095670549505162,51.570747151453]},"properties":{"name":"Manor House"}},{"type":"Feature","geometry":{"type":"Point","coordinates":[0.045738291167029,51.552854343905]},"properties":{"name":"Manor Park"}},{"type":"Feature","geometry":{"type":"Point","coordinates":[-0.094183249527509,51.512091761163]},"properties":{"name":"Mansion House"}},{"type":"Feature","geometry":{"type":"Point","coordinates":[-0.15855680746603,51.513965510738]},"properties":{"name":"Marble Arch"}},{"type":"Feature","geometry":{"type":"Point","coordinates":[0.0056960730233714,51.545668269809]},"properties":{"name":"Maryland"}},{"type":"Feature","geometry":{"type":"Point","coordinates":[-0.16347815242029,51.522396687994]},"properties":{"name":"Marylebone"}},{"type":"Feature","geometry":{"type":"Point","coordinates":[0.0032192958995991,51.483013655604]},"properties":{"name":"Maze Hill"}},{"type":"Feature","geometry":{"type":"Point","coordinates":[-0.20132765404113,51.413391632611]},"properties":{"name":"Merton Park"}},{"type":"Feature","geometry":{"type":"Point","coordinates":[-0.032651671918221,51.525310973905]},"properties":{"name":"Mile End"}},{"type":"Feature","geometry":{"type":"Point","coordinates":[-0.24952262850911,51.612871158046]},"properties":{"name":"Mill Hill Broadway"}},{"type":"Feature","geometry":{"type":"Point","coordinates":[-0.20988127429344,51.608316669912]},"properties":{"name":"Mill Hill East"}},{"type":"Feature","geometry":{"type":"Point","coordinates":[-0.17085727500628,51.397488634497]},"properties":{"name":"Mitcham"}},{"type":"Feature","geometry":{"type":"Point","coordinates":[-0.15398734320935,51.408383928225]},"properties":{"name":"Mitcham Eastfields"}},{"type":"Feature","geometry":{"type":"Point","coordinates":[-0.15742227287945,51.39304258672]},"properties":{"name":"Mitcham Junction"}},{"type":"Feature","geometry":{"type":"Point","coordinates":[-0.086173905918798,51.510630425959]},"properties":{"name":"Monument"}},{"type":"Feature","geometry":{"type":"Point","coordinates":[-0.4328985822977,51.629930718133]},"properties":{"name":"Moor Park"}},{"type":"Feature","geometry":{"type":"Point","coordinates":[-0.08900327764505,51.518437149414]},"properties":{"name":"Moorgate"}},{"type":"Feature","geometry":{"type":"Point","coordinates":[-0.19483760810466,51.402185984981]},"properties":{"name":"Morden"}},{"type":"Feature","geometry":{"type":"Point","coordinates":[-0.19279130153573,51.408871912124]},"properties":{"name":"Morden Road"}},{"type":"Feature","geometry":{"type":"Point","coordinates":[-0.20028719027858,51.396307721608]},"properties":{"name":"Morden South"}},{"type":"Feature","geometry":{"type":"Point","coordinates":[-0.1387299346061,51.534362233874]},"properties":{"name":"Mornington Crescent"}},{"type":"Feature","geometry":{"type":"Point","coordinates":[-0.26718891965297,51.468167968359]},"properties":{"name":"Mortlake"}},{"type":"Feature","geometry":{"type":"Point","coordinates":[-0.23942537454861,51.395319655441]},"properties":{"name":"Motspur Park"}},{"type":"Feature","geometry":{"type":"Point","coordinates":[0.050338587672779,51.439824969906]},"properties":{"name":"Mottingham"}},{"type":"Feature","geometry":{"type":"Point","coordinates":[-0.014945543221677,51.491236186648]},"properties":{"name":"Mudchute"}},{"type":"Feature","geometry":{"type":"Point","coordinates":[-0.25010062378951,51.554627747213]},"properties":{"name":"Neasden"}},{"type":"Feature","geometry":{"type":"Point","coordinates":[-0.017368972030553,51.342590510568]},"properties":{"name":"New Addington"}},{"type":"Feature","geometry":{"type":"Point","coordinates":[-0.17295526264108,51.648536790554]},"properties":{"name":"New Barnet"}},{"type":"Feature","geometry":{"type":"Point","coordinates":[-0.035290571074268,51.41670555246]},"properties":{"name":"New Beckenham"}},{"type":"Feature","geometry":{"type":"Point","coordinates":[-0.032264414494673,51.476429418617]},"properties":{"name":"New Cross"}},{"type":"Feature","geometry":{"type":"Point","coordinates":[-0.039514655295107,51.475264932486]},"properties":{"name":"New Cross Gate"}},{"type":"Feature","geometry":{"type":"Point","coordinates":[0.070459003212279,51.437690651019]},"properties":{"name":"New Eltham"}},{"type":"Feature","geometry":{"type":"Point","coordinates":[-0.25620373217155,51.403555937615]},"properties":{"name":"New Malden"}},{"type":"Feature","geometry":{"type":"Point","coordinates":[-0.14299533557942,51.614093683634]},"properties":{"name":"New Southgate"}},{"type":"Feature","geometry":{"type":"Point","coordinates":[0.090317586010402,51.575638344309]},"properties":{"name":"Newbury Park"}},{"type":"Feature","geometry":{"type":"Point","coordinates":[-0.28418557131983,51.411909385349]},"properties":{"name":"Norbiton"}},{"type":"Feature","geometry":{"type":"Point","coordinates":[-0.12278502535626,51.411188517406]},"properties":{"name":"Norbury"}},{"type":"Feature","geometry":{"type":"Point","coordinates":[-0.25971511616691,51.523432458806]},"properties":{"name":"North Acton"}},{"type":"Feature","geometry":{"type":"Point","coordinates":[-0.087904290624922,51.454481818931]},"properties":{"name":"North Dulwich"}},{"type":"Feature","geometry":{"type":"Point","coordinates":[-0.28897914280262,51.517622323819]},"properties":{"name":"North Ealing"}},{"type":"Feature","geometry":{"type":"Point","coordinates":[0.0036006636371896,51.500255151591]},"properties":{"name":"North Greenwich"}},{"type":"Feature","geometry":{"type":"Point","coordinates":[-0.3626185623764,51.584631342978]},"properties":{"name":"North Harrow"}},{"type":"Feature","geometry":{"type":"Point","coordinates":[-0.28638307337002,51.465419645874]},"properties":{"name":"North Sheen"}},{"type":"Feature","geometry":{"type":"Point","coordinates":[-0.30393379535805,51.562396328364]},"properties":{"name":"North Wembley"}},{"type":"Feature","geometry":{"type":"Point","coordinates":[-0.31505041439224,51.500491708619]},"properties":{"name":"Northfields"}},{"type":"Feature","geometry":{"type":"Point","coordinates":[-0.36842617615208,51.548212945697]},"properties":{"name":"Northolt"}},{"type":"Feature","geometry":{"type":"Point","coordinates":[-0.35941977403748,51.557619094925]},"properties":{"name":"Northolt Park"}},{"type":"Feature","geometry":{"type":"Point","coordinates":[-0.31818496289702,51.5785087266]},"properties":{"name":"Northwick Park"}},{"type":"Feature","geometry":{"type":"Point","coordinates":[-0.42382334746562,51.611213662308]},"properties":{"name":"Northwood"}},{"type":"Feature","geometry":{"type":"Point","coordinates":[-0.40929692189409,51.600802695129]},"properties":{"name":"Northwood Hills"}},{"type":"Feature","geometry":{"type":"Point","coordinates":[-0.075195484483074,51.396954330829]},"properties":{"name":"Norwood Junction"}},{"type":"Feature","geometry":{"type":"Point","coordinates":[-0.1959072111467,51.509375359878]},"properties":{"name":"Notting Hill Gate"}},{"type":"Feature","geometry":{"type":"Point","coordinates":[-0.053665348737765,51.466579990247]},"properties":{"name":"Nunhead"}},{"type":"Feature","geometry":{"type":"Point","coordinates":[-0.16618051866214,51.637676382963]},"properties":{"name":"Oakleigh Park"}},{"type":"Feature","geometry":{"type":"Point","coordinates":[-0.1318390886991,51.64763797617]},"properties":{"name":"Oakwood"}},{"type":"Feature","geometry":{"type":"Point","coordinates":[0.29049788622813,51.521989609028]},"properties":{"name":"Ockendon"}},{"type":"Feature","geometry":{"type":"Point","coordinates":[-0.087608545343845,51.525581481862]},"properties":{"name":"Old Street"}},{"type":"Feature","geometry":{"type":"Point","coordinates":[0.089043266168332,51.373520035814]},"properties":{"name":"Orpington"}},{"type":"Feature","geometry":{"type":"Point","coordinates":[-0.3520816978192,51.481216852781]},"properties":{"name":"Osterley"}},{"type":"Feature","geometry":{"type":"Point","coordinates":[-0.11330667730935,51.481412613811]},"properties":{"name":"Oval"}},{"type":"Feature","geometry":{"type":"Point","coordinates":[-0.14082176208955,51.515223419245]},"properties":{"name":"Oxford Circus"}},{"type":"Feature","geometry":{"type":"Point","coordinates":[-0.17572234283505,51.515393806532]},"properties":{"name":"Paddington"}},{"type":"Feature","geometry":{"type":"Point","coordinates":[-0.11025805805573,51.618786761028]},"properties":{"name":"Palmers Green"}},{"type":"Feature","geometry":{"type":"Point","coordinates":[-0.28491450496891,51.526834054645]},"properties":{"name":"Park Royal"}},{"type":"Feature","geometry":{"type":"Point","coordinates":[-0.20111009589714,51.474960176772]},"properties":{"name":"Parsons Green"}},{"type":"Feature","geometry":{"type":"Point","coordinates":[-0.069969158361951,51.469511372801]},"properties":{"name":"Peckham Rye"}},{"type":"Feature","geometry":{"type":"Point","coordinates":[-0.054480885538245,51.41997535513]},"properties":{"name":"Penge East"}},{"type":"Feature","geometry":{"type":"Point","coordinates":[-0.060631385884983,51.418062935027]},"properties":{"name":"Penge West"}},{"type":"Feature","geometry":{"type":"Point","coordinates":[-0.32305600630537,51.536341860358]},"properties":{"name":"Perivale"}},{"type":"Feature","geometry":{"type":"Point","coordinates":[0.074494399194959,51.388598981243]},"properties":{"name":"Petts Wood"}},{"type":"Feature","geometry":{"type":"Point","coordinates":[-0.18228241487465,51.403376749631]},"properties":{"name":"Phipps Bridge"}},{"type":"Feature","geometry":{"type":"Point","coordinates":[-0.13369718974012,51.509696764476]},"properties":{"name":"Piccadilly Circus"}},{"type":"Feature","geometry":{"type":"Point","coordinates":[-0.1330938573102,51.489552877924]},"properties":{"name":"Pimlico"}},{"type":"Feature","geometry":{"type":"Point","coordinates":[-0.38120935690424,51.592361724428]},"properties":{"name":"Pinner"}},{"type":"Feature","geometry":{"type":"Point","coordinates":[0.017795056275962,51.531288332324]},"properties":{"name":"Plaistow"}},{"type":"Feature","geometry":{"type":"Point","coordinates":[0.084314017745385,51.489792413595]},"properties":{"name":"Plumstead"}},{"type":"Feature","geometry":{"type":"Point","coordinates":[-0.034510654933282,51.642730695]},"properties":{"name":"Ponders End"}},{"type":"Feature","geometry":{"type":"Point","coordinates":[0.033340112607835,51.502216211037]},"properties":{"name":"Pontoon Dock"}},{"type":"Feature","geometry":{"type":"Point","coordinates":[-0.017261086484836,51.507588072081]},"properties":{"name":"Poplar"}},{"type":"Feature","geometry":{"type":"Point","coordinates":[-0.29495758553154,51.572103763883]},"properties":{"name":"Preston Road"}},{"type":"Feature","geometry":{"type":"Point","coordinates":[0.033502981448267,51.509434545079]},"properties":{"name":"Prince Regent"}},{"type":"Feature","geometry":{"type":"Point","coordinates":[-0.012754096692901,51.53432785535]},"properties":{"name":"Pudding Mill Lane"}},{"type":"Feature","geometry":{"type":"Point","coordinates":[0.23678923416561,51.481172976438]},"properties":{"name":"Purfleet"}},{"type":"Feature","geometry":{"type":"Point","coordinates":[-0.11359916443804,51.337363567516]},"properties":{"name":"Purley"}},{"type":"Feature","geometry":{"type":"Point","coordinates":[-0.098800976652713,51.346989351539]},"properties":{"name":"Purley Oaks"}},{"type":"Feature","geometry":{"type":"Point","coordinates":[-0.21658898147399,51.460952556568]},"properties":{"name":"Putney"}},{"type":"Feature","geometry":{"type":"Point","coordinates":[-0.20935102262327,51.467865362703]},"properties":{"name":"Putney Bridge"}},{"type":"Feature","geometry":{"type":"Point","coordinates":[-0.20478373421795,51.534312675201]},"properties":{"name":"Queens Park"}},{"type":"Feature","geometry":{"type":"Point","coordinates":[-0.057340582526957,51.474284715779]},"properties":{"name":"Queens Road Peckham"}},{"type":"Feature","geometry":{"type":"Point","coordinates":[-0.28631716346916,51.593883010111]},"properties":{"name":"Queensbury"}},{"type":"Feature","geometry":{"type":"Point","coordinates":[-0.14734091559888,51.47495914471]},"properties":{"name":"Queenstown Road"}},{"type":"Feature","geometry":{"type":"Point","coordinates":[-0.18740549543317,51.510449255439]},"properties":{"name":"Queensway"}},{"type":"Feature","geometry":{"type":"Point","coordinates":[-0.31797317069656,51.685413310275]},"properties":{"name":"Radlett"}},{"type":"Feature","geometry":{"type":"Point","coordinates":[0.19070638530502,51.517340491331]},"properties":{"name":"Rainham"}},{"type":"Feature","geometry":{"type":"Point","coordinates":[-0.0069234381730423,51.413870378956]},"properties":{"name":"Ravensbourne"}},{"type":"Feature","geometry":{"type":"Point","coordinates":[-0.23595483065011,51.494068008984]},"properties":{"name":"Ravenscourt Park"}},{"type":"Feature","geometry":{"type":"Point","coordinates":[-0.371046385824,51.575396777398]},"properties":{"name":"Rayners Lane"}},{"type":"Feature","geometry":{"type":"Point","coordinates":[-0.22989856350727,51.409375373186]},"properties":{"name":"Raynes Park"}},{"type":"Feature","geometry":{"type":"Point","coordinates":[-0.068371241749211,51.558763484573]},"properties":{"name":"Rectory Road"}},{"type":"Feature","geometry":{"type":"Point","coordinates":[0.045408472505876,51.576366911264]},"properties":{"name":"Redbridge"}},{"type":"Feature","geometry":{"type":"Point","coordinates":[-0.12338827286968,51.331441727656]},"properties":{"name":"Reedham"}},{"type":"Feature","geometry":{"type":"Point","coordinates":[-0.10636541298118,51.375277212973]},"properties":{"name":"Reeves Corner"}},{"type":"Feature","geometry":{"type":"Point","coordinates":[-0.14532999904559,51.52381069054]},"properties":{"name":"Regents Park"}},{"type":"Feature","geometry":{"type":"Point","coordinates":[-0.30172474133933,51.463232922347]},"properties":{"name":"Richmond"}},{"type":"Feature","geometry":{"type":"Point","coordinates":[-0.47367013575456,51.640323072212]},"properties":{"name":"Rickmansworth"}},{"type":"Feature","geometry":{"type":"Point","coordinates":[-0.099479315537562,51.332674842588]},"properties":{"name":"Riddlesdown"}},{"type":"Feature","geometry":{"type":"Point","coordinates":[0.044040648415103,51.616956440142]},"properties":{"name":"Roding Valley"}},{"type":"Feature","geometry":{"type":"Point","coordinates":[0.18306970022131,51.574641568849]},"properties":{"name":"Romford"}},{"type":"Feature","geometry":{"type":"Point","coordinates":[-0.052951891484305,51.501594510808]},"properties":{"name":"Rotherhithe"}},{"type":"Feature","geometry":{"type":"Point","coordinates":[0.045191552169371,51.508493863562]},"properties":{"name":"Royal Albert"}},{"type":"Feature","geometry":{"type":"Point","coordinates":[-0.18880926348942,51.518294375269]},"properties":{"name":"Royal Oak"}},{"type":"Feature","geometry":{"type":"Point","coordinates":[0.017979819853408,51.509055232332]},"properties":{"name":"Royal Victoria"}},{"type":"Feature","geometry":{"type":"Point","coordinates":[-0.42122049909957,51.57216197222]},"properties":{"name":"Ruislip"}},{"type":"Feature","geometry":{"type":"Point","coordinates":[-0.40927968814014,51.559960227907]},"properties":{"name":"Ruislip Gardens"}},{"type":"Feature","geometry":{"type":"Point","coordinates":[-0.41283492710738,51.573451624726]},"properties":{"name":"Ruislip Manor"}},{"type":"Feature","geometry":{"type":"Point","coordinates":[-0.12457578611157,51.523013052867]},"properties":{"name":"Russell Square"}},{"type":"Feature","geometry":{"type":"Point","coordinates":[-0.093694143249397,51.34824626461]},"properties":{"name":"Sanderstead"}},{"type":"Feature","geometry":{"type":"Point","coordinates":[-0.078012224592499,51.375022281188]},"properties":{"name":"Sandilands"}},{"type":"Feature","geometry":{"type":"Point","coordinates":[-0.089884666539009,51.39218578041]},"properties":{"name":"Selhurst"}},{"type":"Feature","geometry":{"type":"Point","coordinates":[0.096333999350604,51.563993339397]},"properties":{"name":"Seven Kings"}},{"type":"Feature","geometry":{"type":"Point","coordinates":[-0.0724523920649,51.583362168372]},"properties":{"name":"Seven Sisters"}},{"type":"Feature","geometry":{"type":"Point","coordinates":[-0.056904799137598,51.51130016173]},"properties":{"name":"Shadwell"}},{"type":"Feature","geometry":{"type":"Point","coordinates":[0.32996670993987,51.630873056088]},"properties":{"name":"Shenfield"}},{"type":"Feature","geometry":{"type":"Point","coordinates":[-0.21850475368199,51.50453217729]},"properties":{"name":"Shepherds Bush"}},{"type":"Feature","geometry":{"type":"Point","coordinates":[-0.22738608723774,51.505880735504]},"properties":{"name":"Shepherds Bush Market"}},{"type":"Feature","geometry":{"type":"Point","coordinates":[-0.077073012851082,51.523466827911]},"properties":{"name":"Shoreditch High Street"}},{"type":"Feature","geometry":{"type":"Point","coordinates":[0.0027819191560382,51.40560236593]},"properties":{"name":"Shortlands"}},{"type":"Feature","geometry":{"type":"Point","coordinates":[0.10332974285774,51.43439844437]},"properties":{"name":"Sidcup"}},{"type":"Feature","geometry":{"type":"Point","coordinates":[-0.072575300701906,51.615242486372]},"properties":{"name":"Silver Street"}},{"type":"Feature","geometry":{"type":"Point","coordinates":[0.19053278174752,51.467747631244]},"properties":{"name":"Slade Green"}},{"type":"Feature","geometry":{"type":"Point","coordinates":[-0.1564744555002,51.492359782932]},"properties":{"name":"Sloane Square"}},{"type":"Feature","geometry":{"type":"Point","coordinates":[-0.13433270854947,51.322452969178]},"properties":{"name":"Smitham"}},{"type":"Feature","geometry":{"type":"Point","coordinates":[0.021478357761873,51.580891270601]},"properties":{"name":"Snaresbrook"}},{"type":"Feature","geometry":{"type":"Point","coordinates":[-0.27020080333496,51.499685861011]},"properties":{"name":"South Acton"}},{"type":"Feature","geometry":{"type":"Point","coordinates":[-0.054740420692279,51.487676621549]},"properties":{"name":"South Bermondsey"}},{"type":"Feature","geometry":{"type":"Point","coordinates":[-0.092503001948904,51.362750208796]},"properties":{"name":"South Croydon"}},{"type":"Feature","geometry":{"type":"Point","coordinates":[-0.30702584019952,51.501644057917]},"properties":{"name":"South Ealing"}},{"type":"Feature","geometry":{"type":"Point","coordinates":[-0.1783567825076,51.541476868984]},"properties":{"name":"South Hampstead"}},{"type":"Feature","geometry":{"type":"Point","coordinates":[-0.35187954635816,51.564680211138]},"properties":{"name":"South Harrow"}},{"type":"Feature","geometry":{"type":"Point","coordinates":[-0.17390862058942,51.494071386411]},"properties":{"name":"South Kensington"}},{"type":"Feature","geometry":{"type":"Point","coordinates":[-0.30812855062663,51.571044486824]},"properties":{"name":"South Kenton"}},{"type":"Feature","geometry":{"type":"Point","coordinates":[-0.20553592740103,51.403240579864]},"properties":{"name":"South Merton"}},{"type":"Feature","geometry":{"type":"Point","coordinates":[-0.018446287979256,51.500863608239]},"properties":{"name":"South Quay"}},{"type":"Feature","geometry":{"type":"Point","coordinates":[-0.39910148824501,51.55689035096]},"properties":{"name":"South Ruislip"}},{"type":"Feature","geometry":{"type":"Point","coordinates":[-0.071841526783666,51.580402594532]},"properties":{"name":"South Tottenham"}},{"type":"Feature","geometry":{"type":"Point","coordinates":[-0.19196016848772,51.41536073293]},"properties":{"name":"South Wimbledon"}},{"type":"Feature","geometry":{"type":"Point","coordinates":[0.027957511681624,51.591552612383]},"properties":{"name":"South Woodford"}},{"type":"Feature","geometry":{"type":"Point","coordinates":[-0.37869678379695,51.505956957579]},"properties":{"name":"Southall"}},{"type":"Feature","geometry":{"type":"Point","coordinates":[-0.052968859157203,51.648433731335]},"properties":{"name":"Southbury"}},{"type":"Feature","geometry":{"type":"Point","coordinates":[-0.20659499856664,51.444883338258]},"properties":{"name":"Southfields"}},{"type":"Feature","geometry":{"type":"Point","coordinates":[-0.12775560097809,51.63237586338]},"properties":{"name":"Southgate"}},{"type":"Feature","geometry":{"type":"Point","coordinates":[-0.10578053394541,51.503853632869]},"properties":{"name":"Southwark"}},{"type":"Feature","geometry":{"type":"Point","coordinates":[-0.19900022218424,51.389912187517]},"properties":{"name":"St Helier"}},{"type":"Feature","geometry":{"type":"Point","coordinates":[-0.032790131848525,51.580608667586]},"properties":{"name":"St James Street"}},{"type":"Feature","geometry":{"type":"Point","coordinates":[-0.023226267171585,51.468975297065]},"properties":{"name":"St Johns"}},{"type":"Feature","geometry":{"type":"Point","coordinates":[-0.32130985776381,51.455206030249]},"properties":{"name":"St Margarets"}},{"type":"Feature","geometry":{"type":"Point","coordinates":[0.10723227089692,51.394759394244]},"properties":{"name":"St Mary Cray"}},{"type":"Feature","geometry":{"type":"Point","coordinates":[-0.12549136793246,51.530554416571]},"properties":{"name":"St Pancras"}},{"type":"Feature","geometry":{"type":"Point","coordinates":[-0.13386435110426,51.499609810342]},"properties":{"name":"St. James's Park"}},{"type":"Feature","geometry":{"type":"Point","coordinates":[-0.17405042505482,51.534854431713]},"properties":{"name":"St. Johns Wood"}},{"type":"Feature","geometry":{"type":"Point","coordinates":[-0.097556591574387,51.51483530739]},"properties":{"name":"St. Pauls"}},{"type":"Feature","geometry":{"type":"Point","coordinates":[-0.24523190696758,51.494449997347]},"properties":{"name":"Stamford Brook"}},{"type":"Feature","geometry":{"type":"Point","coordinates":[-0.076653913978365,51.574447612615]},"properties":{"name":"Stamford Hill"}},{"type":"Feature","geometry":{"type":"Point","coordinates":[-0.30308485086488,51.6196734807]},"properties":{"name":"Stanmore"}},{"type":"Feature","geometry":{"type":"Point","coordinates":[0.0042054135552674,51.520604250081]},"properties":{"name":"Star Lane"}},{"type":"Feature","geometry":{"type":"Point","coordinates":[-0.047368111957746,51.521995838874]},"properties":{"name":"Stepney Green"}},{"type":"Feature","geometry":{"type":"Point","coordinates":[-0.12283190859196,51.472159270341]},"properties":{"name":"Stockwell"}},{"type":"Feature","geometry":{"type":"Point","coordinates":[-0.072320969849242,51.564637618307]},"properties":{"name":"Stoke Newington"}},{"type":"Feature","geometry":{"type":"Point","coordinates":[-0.27538602336732,51.54398658738]},"properties":{"name":"Stonebridge Park"}},{"type":"Feature","geometry":{"type":"Point","coordinates":[-0.248695295654,51.363364082259]},"properties":{"name":"Stoneleigh"}},{"type":"Feature","geometry":{"type":"Point","coordinates":[-0.0037372234417709,51.541692579295]},"properties":{"name":"Stratford"}},{"type":"Feature","geometry":{"type":"Point","coordinates":[-0.001065939537146,51.538148951165]},"properties":{"name":"Stratford High Street"}},{"type":"Feature","geometry":{"type":"Point","coordinates":[-0.0087640154463654,51.54480853536]},"properties":{"name":"Stratford International"}},{"type":"Feature","geometry":{"type":"Point","coordinates":[-0.33960334587097,51.439747873261]},"properties":{"name":"Strawberry Hill"}},{"type":"Feature","geometry":{"type":"Point","coordinates":[-0.13231111566835,51.425845878375]},"properties":{"name":"Streatham"}},{"type":"Feature","geometry":{"type":"Point","coordinates":[-0.13571178617484,51.418984686908]},"properties":{"name":"Streatham Common"}},{"type":"Feature","geometry":{"type":"Point","coordinates":[-0.1276670964405,51.438460380547]},"properties":{"name":"Streatham Hill"}},{"type":"Feature","geometry":{"type":"Point","coordinates":[-0.31591182033013,51.554493821699]},"properties":{"name":"Sudbury and Harrow Road"}},{"type":"Feature","geometry":{"type":"Point","coordinates":[-0.33637769283987,51.557339600086]},"properties":{"name":"Sudbury Hill"}},{"type":"Feature","geometry":{"type":"Point","coordinates":[-0.33543227050831,51.558342313079]},"properties":{"name":"Sudbury Hill Harrow"}},{"type":"Feature","geometry":{"type":"Point","coordinates":[-0.31632906529511,51.551397480891]},"properties":{"name":"Sudbury Town"}},{"type":"Feature","geometry":{"type":"Point","coordinates":[0.020379486210958,51.413393796204]},"properties":{"name":"Sundridge Park"}},{"type":"Feature","geometry":{"type":"Point","coordinates":[-0.3043701893312,51.392599569913]},"properties":{"name":"Surbiton"}},{"type":"Feature","geometry":{"type":"Point","coordinates":[-0.047515585346921,51.493266862158]},"properties":{"name":"Surrey Quays"}},{"type":"Feature","geometry":{"type":"Point","coordinates":[-0.19128765090448,51.359506158142]},"properties":{"name":"Sutton"}},{"type":"Feature","geometry":{"type":"Point","coordinates":[-0.19690554710689,51.375554718505]},"properties":{"name":"Sutton Common"}},{"type":"Feature","geometry":{"type":"Point","coordinates":[-0.17561218648329,51.543034867714]},"properties":{"name":"Swiss Cottage"}},{"type":"Feature","geometry":{"type":"Point","coordinates":[-0.055074289357489,51.427341258001]},"properties":{"name":"Sydenham"}},{"type":"Feature","geometry":{"type":"Point","coordinates":[-0.080215824663043,51.432575896828]},"properties":{"name":"Sydenham Hill"}},{"type":"Feature","geometry":{"type":"Point","coordinates":[-0.32648063620347,51.481474727333]},"properties":{"name":"Syon Lane"}},{"type":"Feature","geometry":{"type":"Point","coordinates":[-0.23599367683683,51.291627892489]},"properties":{"name":"Tadworth"}},{"type":"Feature","geometry":{"type":"Point","coordinates":[-0.24255192829864,51.309181339608]},"properties":{"name":"Tattenham Corner"}},{"type":"Feature","geometry":{"type":"Point","coordinates":[-0.3326909565597,51.424497537357]},"properties":{"name":"Teddington"}},{"type":"Feature","geometry":{"type":"Point","coordinates":[-0.11371134239066,51.51104062071]},"properties":{"name":"Temple"}},{"type":"Feature","geometry":{"type":"Point","coordinates":[-0.33827846842909,51.388616113023]},"properties":{"name":"Thames Ditton"}},{"type":"Feature","geometry":{"type":"Point","coordinates":[-0.034733669022743,51.692372592735]},"properties":{"name":"Theobalds Grove"}},{"type":"Feature","geometry":{"type":"Point","coordinates":[-0.1290027383586,51.385685806069]},"properties":{"name":"Therapia Lane"}},{"type":"Feature","geometry":{"type":"Point","coordinates":[0.10290519530392,51.672552069981]},"properties":{"name":"Theydon Bois"}},{"type":"Feature","geometry":{"type":"Point","coordinates":[-0.10041879260042,51.398481089859]},"properties":{"name":"Thornton Heath"}},{"type":"Feature","geometry":{"type":"Point","coordinates":[-0.27960574939507,51.376843349784]},"properties":{"name":"Tolworth"}},{"type":"Feature","geometry":{"type":"Point","coordinates":[-0.16098809293112,51.419896651766]},"properties":{"name":"Tooting"}},{"type":"Feature","geometry":{"type":"Point","coordinates":[-0.15968610811001,51.435838083172]},"properties":{"name":"Tooting Bec"}},{"type":"Feature","geometry":{"type":"Point","coordinates":[-0.16867014599257,51.42704916499]},"properties":{"name":"Tooting Broadway"}},{"type":"Feature","geometry":{"type":"Point","coordinates":[-0.13109602942553,51.51621088565]},"properties":{"name":"Tottenham Court Road"}},{"type":"Feature","geometry":{"type":"Point","coordinates":[-0.060173390466137,51.587997785049]},"properties":{"name":"Tottenham Hale"}},{"type":"Feature","geometry":{"type":"Point","coordinates":[-0.17933981753571,51.63024674119]},"properties":{"name":"Totteridge and Whetstone"}},{"type":"Feature","geometry":{"type":"Point","coordinates":[-0.074395469530797,51.510392650922]},"properties":{"name":"Tower Gateway"}},{"type":"Feature","geometry":{"type":"Point","coordinates":[-0.076686790760475,51.510394282129]},"properties":{"name":"Tower Hill"}},{"type":"Feature","geometry":{"type":"Point","coordinates":[-0.13772775294192,51.556440814333]},"properties":{"name":"Tufnell Park"}},{"type":"Feature","geometry":{"type":"Point","coordinates":[-0.10510812362275,51.4397974399]},"properties":{"name":"Tulse Hill"}},{"type":"Feature","geometry":{"type":"Point","coordinates":[-0.047215472250329,51.672653666247]},"properties":{"name":"Turkey Street"}},{"type":"Feature","geometry":{"type":"Point","coordinates":[-0.25451016527384,51.495181971972]},"properties":{"name":"Turnham Green"}},{"type":"Feature","geometry":{"type":"Point","coordinates":[-0.1027906082273,51.590358146027]},"properties":{"name":"Turnpike Lane"}},{"type":"Feature","geometry":{"type":"Point","coordinates":[-0.32884583782433,51.450250987135]},"properties":{"name":"Twickenham"}},{"type":"Feature","geometry":{"type":"Point","coordinates":[0.2514152239117,51.558763325208]},"properties":{"name":"Upminster"}},{"type":"Feature","geometry":{"type":"Point","coordinates":[0.23455631120919,51.557718771685]},"properties":{"name":"Upminster Bridge"}},{"type":"Feature","geometry":{"type":"Point","coordinates":[0.10154616057314,51.538405634701]},"properties":{"name":"Upney"}},{"type":"Feature","geometry":{"type":"Point","coordinates":[-0.12909493917319,51.563623319983]},"properties":{"name":"Upper Holloway"}},{"type":"Feature","geometry":{"type":"Point","coordinates":[-0.077467317417935,51.308772263619]},"properties":{"name":"Upper Warlingham"}},{"type":"Feature","geometry":{"type":"Point","coordinates":[0.034556255633226,51.536628195871]},"properties":{"name":"Upton Park"}},{"type":"Feature","geometry":{"type":"Point","coordinates":[-0.47708714109832,51.546454564696]},"properties":{"name":"Uxbridge"}},{"type":"Feature","geometry":{"type":"Point","coordinates":[-0.12381555294752,51.485735816391]},"properties":{"name":"Vauxhall"}},{"type":"Feature","geometry":{"type":"Point","coordinates":[-0.14390630306143,51.496423969876]},"properties":{"name":"Victoria"}},{"type":"Feature","geometry":{"type":"Point","coordinates":[-0.11737971383443,51.367379270921]},"properties":{"name":"Waddon"}},{"type":"Feature","geometry":{"type":"Point","coordinates":[-0.11797309914267,51.37708296596]},"properties":{"name":"Waddon Marsh"}},{"type":"Feature","geometry":{"type":"Point","coordinates":[-0.15084947457103,51.360331562347]},"properties":{"name":"Wallington"}},{"type":"Feature","geometry":{"type":"Point","coordinates":[-0.026549794125904,51.685257259065]},"properties":{"name":"Waltham Cross"}},{"type":"Feature","geometry":{"type":"Point","coordinates":[-0.019926114372123,51.583018115291]},"properties":{"name":"Walthamstow Central"}},{"type":"Feature","geometry":{"type":"Point","coordinates":[-0.0238295131434,51.581546193899]},"properties":{"name":"Walthamstow Queens Road"}},{"type":"Feature","geometry":{"type":"Point","coordinates":[-0.11323895651905,51.373400729089]},"properties":{"name":"Wandle Park"}},{"type":"Feature","geometry":{"type":"Point","coordinates":[-0.16352259346247,51.446365623898]},"properties":{"name":"Wandsworth Common"}},{"type":"Feature","geometry":{"type":"Point","coordinates":[-0.13902328072857,51.470223218762]},"properties":{"name":"Wandsworth Road"}},{"type":"Feature","geometry":{"type":"Point","coordinates":[-0.18789564563536,51.461034098277]},"properties":{"name":"Wandsworth Town"}},{"type":"Feature","geometry":{"type":"Point","coordinates":[0.028774900468403,51.574902145755]},"properties":{"name":"Wanstead"}},{"type":"Feature","geometry":{"type":"Point","coordinates":[0.026404363778733,51.551778074703]},"properties":{"name":"Wanstead Park"}},{"type":"Feature","geometry":{"type":"Point","coordinates":[-0.055846408737992,51.504340322706]},"properties":{"name":"Wapping"}},{"type":"Feature","geometry":{"type":"Point","coordinates":[-0.13826391949985,51.524580005085]},"properties":{"name":"Warren Street"}},{"type":"Feature","geometry":{"type":"Point","coordinates":[-0.18293888140664,51.523104457076]},"properties":{"name":"Warwick Avenue"}},{"type":"Feature","geometry":{"type":"Point","coordinates":[-0.11324484659974,51.503146653078]},"properties":{"name":"Waterloo"}},{"type":"Feature","geometry":{"type":"Point","coordinates":[-0.41725555293253,51.657605146891]},"properties":{"name":"Watford"}},{"type":"Feature","geometry":{"type":"Point","coordinates":[-0.39168227690127,51.652653752213]},"properties":{"name":"Watford High Street"}},{"type":"Feature","geometry":{"type":"Point","coordinates":[-0.39615750118974,51.663883061474]},"properties":{"name":"Watford Junction"}},{"type":"Feature","geometry":{"type":"Point","coordinates":[-0.097510543352686,51.375367549964]},"properties":{"name":"Wellesley Road"}},{"type":"Feature","geometry":{"type":"Point","coordinates":[0.10178943179171,51.464777075182]},"properties":{"name":"Welling"}},{"type":"Feature","geometry":{"type":"Point","coordinates":[-0.29637790641578,51.551864816194]},"properties":{"name":"Wembley Central"}},{"type":"Feature","geometry":{"type":"Point","coordinates":[-0.27922812839087,51.563322491915]},"properties":{"name":"Wembley Park"}},{"type":"Feature","geometry":{"type":"Point","coordinates":[-0.28603202522583,51.554654605186]},"properties":{"name":"Wembley Stadium"}},{"type":"Feature","geometry":{"type":"Point","coordinates":[-0.28064276561988,51.517770184208]},"properties":{"name":"West Acton"}},{"type":"Feature","geometry":{"type":"Point","coordinates":[-0.19552441152812,51.487328938205]},"properties":{"name":"West Brompton"}},{"type":"Feature","geometry":{"type":"Point","coordinates":[-0.1020199266263,51.378552186111]},"properties":{"name":"West Croydon"}},{"type":"Feature","geometry":{"type":"Point","coordinates":[-0.47216168972777,51.510071275994]},"properties":{"name":"West Drayton"}},{"type":"Feature","geometry":{"type":"Point","coordinates":[-0.090658290563767,51.440911831895]},"properties":{"name":"West Dulwich"}},{"type":"Feature","geometry":{"type":"Point","coordinates":[-0.31976854613702,51.513625243955]},"properties":{"name":"West Ealing"}},{"type":"Feature","geometry":{"type":"Point","coordinates":[-0.1889026706526,51.609262750488]},"properties":{"name":"West Finchley"}},{"type":"Feature","geometry":{"type":"Point","coordinates":[0.0053318072586749,51.52852551818]},"properties":{"name":"West Ham"}},{"type":"Feature","geometry":{"type":"Point","coordinates":[-0.19111216622603,51.547474356007]},"properties":{"name":"West Hampstead"}},{"type":"Feature","geometry":{"type":"Point","coordinates":[-0.19252310000093,51.548629145744]},"properties":{"name":"West Hampstead Thameslink"}},{"type":"Feature","geometry":{"type":"Point","coordinates":[-0.35383226807134,51.578924280955]},"properties":{"name":"West Harrow"}},{"type":"Feature","geometry":{"type":"Point","coordinates":[-0.020568040587805,51.506762659668]},"properties":{"name":"West India Quay"}},{"type":"Feature","geometry":{"type":"Point","coordinates":[-0.20618929345907,51.490109387233]},"properties":{"name":"West Kensington"}},{"type":"Feature","geometry":{"type":"Point","coordinates":[-0.10317475212492,51.431241127782]},"properties":{"name":"West Norwood"}},{"type":"Feature","geometry":{"type":"Point","coordinates":[-0.43784571956141,51.569587924657]},"properties":{"name":"West Ruislip"}},{"type":"Feature","geometry":{"type":"Point","coordinates":[0.022260451989289,51.502884431544]},"properties":{"name":"West Silvertown"}},{"type":"Feature","geometry":{"type":"Point","coordinates":[-0.20463018612991,51.366150159758]},"properties":{"name":"West Sutton"}},{"type":"Feature","geometry":{"type":"Point","coordinates":[-0.014561963270977,51.381284202527]},"properties":{"name":"West Wickham"}},{"type":"Feature","geometry":{"type":"Point","coordinates":[-0.20086810419124,51.520988865484]},"properties":{"name":"Westbourne Park"}},{"type":"Feature","geometry":{"type":"Point","coordinates":[0.017760099794534,51.484508893293]},"properties":{"name":"Westcombe Park"}},{"type":"Feature","geometry":{"type":"Point","coordinates":[-0.026308729670621,51.509638150617]},"properties":{"name":"Westferry"}},{"type":"Feature","geometry":{"type":"Point","coordinates":[-0.12498767440679,51.501401606172]},"properties":{"name":"Westminster"}},{"type":"Feature","geometry":{"type":"Point","coordinates":[-0.22461752326457,51.512232464701]},"properties":{"name":"White City"}},{"type":"Feature","geometry":{"type":"Point","coordinates":[-0.07085588920127,51.605034779059]},"properties":{"name":"White Hart Lane"}},{"type":"Feature","geometry":{"type":"Point","coordinates":[-0.059406074587337,51.519587792346]},"properties":{"name":"Whitechapel"}},{"type":"Feature","geometry":{"type":"Point","coordinates":[-0.35766767257282,51.449588234079]},"properties":{"name":"Whitton"}},{"type":"Feature","geometry":{"type":"Point","coordinates":[-0.081120820529126,51.309929327757]},"properties":{"name":"Whyteleafe"}},{"type":"Feature","geometry":{"type":"Point","coordinates":[-0.076698171894698,51.30348981231]},"properties":{"name":"Whyteleafe South"}},{"type":"Feature","geometry":{"type":"Point","coordinates":[-0.22239318421442,51.549373313232]},"properties":{"name":"Willesden Green"}},{"type":"Feature","geometry":{"type":"Point","coordinates":[-0.2438947288224,51.532233992929]},"properties":{"name":"Willesden Junction"}},{"type":"Feature","geometry":{"type":"Point","coordinates":[-0.20664845638008,51.421107869794]},"properties":{"name":"Wimbledon"}},{"type":"Feature","geometry":{"type":"Point","coordinates":[-0.21407539384331,51.409530957999]},"properties":{"name":"Wimbledon Chase"}},{"type":"Feature","geometry":{"type":"Point","coordinates":[-0.19917189150183,51.434580976538]},"properties":{"name":"Wimbledon Park"}},{"type":"Feature","geometry":{"type":"Point","coordinates":[-0.10090248655044,51.633886871044]},"properties":{"name":"Winchmore Hill"}},{"type":"Feature","geometry":{"type":"Point","coordinates":[-0.10951215426353,51.597453741251]},"properties":{"name":"Wood Green"}},{"type":"Feature","geometry":{"type":"Point","coordinates":[-0.2244582012666,51.509658221839]},"properties":{"name":"Wood Lane"}},{"type":"Feature","geometry":{"type":"Point","coordinates":[-0.0019394662016431,51.586669943719]},"properties":{"name":"Wood Street"}},{"type":"Feature","geometry":{"type":"Point","coordinates":[0.034070640659794,51.607201839663]},"properties":{"name":"Woodford"}},{"type":"Feature","geometry":{"type":"Point","coordinates":[0.044586916011772,51.549052529247]},"properties":{"name":"Woodgrange Park"}},{"type":"Feature","geometry":{"type":"Point","coordinates":[-0.154247780889,51.319018597795]},"properties":{"name":"Woodmansterne"}},{"type":"Feature","geometry":{"type":"Point","coordinates":[-0.065332809136231,51.387097690619]},"properties":{"name":"Woodside"}},{"type":"Feature","geometry":{"type":"Point","coordinates":[-0.185411063095,51.617868422141]},"properties":{"name":"Woodside Park"}},{"type":"Feature","geometry":{"type":"Point","coordinates":[0.069208307647642,51.489907107526]},"properties":{"name":"Woolwich Arsenal"}},{"type":"Feature","geometry":{"type":"Point","coordinates":[0.054626749936269,51.491107787563]},"properties":{"name":"Woolwich Dockyard"}},{"type":"Feature","geometry":{"type":"Point","coordinates":[-0.24556092484593,51.381104516868]},"properties":{"name":"Worcester Park"}}]}
